     3.01           OBSERVATION DATA    G (GPS)             RINEX VERSION / TYPE
Convert 2.6.5       NovAtel             20201104 134846 UTC PGM / RUN BY / DATE 
RINEX Version 3.01 Observation File                         COMMENT             
                                                            MARKER NAME         
                                                            MARKER NUMBER       
                                                            OBSERVER / AGENCY   
                    NovAtel GPSCard                         REC # / TYPE / VERS 
                                                            ANT # / TYPE        
        0.0000        0.0000        0.0000                  APPROX POSITION XYZ 
        0.0000        0.0000        0.0000                  ANTENNA: DELTA H/E/N
G   12 C1C L1C D1C S1C C2W L2W D2W S2W C2S L2S D2S S2S      SYS / # / OBS TYPES 
DBHZ                                                        SIGNAL STRENGTH UNIT
     1.000                                                  INTERVAL            
  2020     6    11    13    26   17.0000000     GPS         TIME OF FIRST OBS   
  2020     6    11    13    39    3.0000000     GPS         TIME OF LAST OBS    
G L1C  0.00000  11 G20 G27 G10 G18 G07 G11 G26 G15 G08 G16  SYS / PHASE SHIFTS  
                   G21                                      SYS / PHASE SHIFTS  
G L2W  0.00000  11 G20 G27 G10 G18 G07 G11 G26 G15 G08 G16  SYS / PHASE SHIFTS  
                   G21                                      SYS / PHASE SHIFTS  
G L2S -0.25000  07 G27 G10 G18 G07 G26 G15 G08              SYS / PHASE SHIFTS  
Leap Seconds Unknown                                        COMMENT             
                                                            END OF HEADER       
> 2020 06 11 13 26 17.0000000  0 11      -0.000000000000
G20  21282963.466 7 111842725.714 7        34.521          45.916    21282962.359 7  87150176.472 7        26.900          44.795                                                                  
G27  20475365.095 8 107598770.710 8      1016.712          48.433    20475366.111 8  83843197.232 8       792.244          48.591    20475366.642 8  83843199.234 8       792.244          50.659  
G10  22107144.376 7 116173831.899 7      2337.608          47.264    22107145.608 7  90525069.095 7      1821.514          47.096    22107145.441 8  90525071.103 8      1821.514          48.086  
G18  22882303.029 7 120247286.637 7     -3105.513          44.962    22882302.110 7  93699197.824 7     -2419.881          42.195    22882302.601 7  93699193.828 7     -2419.881          46.396  
G07  24438196.383 6 128423597.095 6       785.313          39.918    24438196.910 6 100070335.101 6       611.934          39.433    24438197.466 7 100070336.105 7       611.934          44.848  
G11  24680155.229 7 129695107.966 7      3515.495          43.218    24680156.918 5 101061111.640 5      2739.346          34.030                                                                  
G26  22463634.791 7 118047179.509 7     -3266.008          42.011    22463636.144 6  91984826.971 6     -2544.940          41.752    22463636.285 7  91984804.982 7     -2544.939          45.108  
G15  24870166.914 7 130693597.403 7       695.448          43.366    24870166.736 7 101839175.651 7       541.909          43.096    24870167.078 6 101839188.662 6       541.907          38.676  
G08  22302643.651 6 117201187.754 6      2633.638          41.079    22302646.193 6  91325601.654 6      2052.186          40.954    22302647.073 8  91325611.658 8      2052.187          48.034  
G16  20708202.788 7 108822334.368 7     -1502.430          44.585    20708201.196 7  84796620.845 7     -1170.724          44.404                                                                  
G21  21686924.642 7 113965554.454 7     -1923.314          44.625    21686923.593 7  88804326.561 7     -1498.687          44.010                                                                  
> 2020 06 11 13 26 18.0000000  0 11      -0.000000000000
G20  21282956.939 7 111842691.368 7        34.376          47.943    21282955.838 7  87150149.710 7        26.788          43.632                                                                  
G27  20475171.605 8 107597753.911 8      1016.893          50.056    20475172.621 8  83842404.921 8       792.384          50.524    20475173.153 8  83842406.922 8       792.384          50.666  
G10  22106699.552 8 116171494.317 8      2337.650          49.094    22106700.778 8  90523247.603 8      1821.547          49.047    22106700.622 8  90523249.608 8      1821.546          48.150  
G18  22882893.987 7 120250392.132 7     -3105.163          46.965    22882893.067 6  93701617.691 6     -2419.607          39.588    22882893.564 7  93701613.693 7     -2419.608          46.312  
G07  24438046.884 7 128422811.508 7       785.666          42.421    24438047.416 6 100069722.953 6       612.208          41.313    24438047.960 7 100069723.958 7       612.209          44.774  
G11  24679486.192 7 129691592.131 7      3515.902          45.665    24679487.935 5 101058372.025 5      2739.665          31.551                                                                  
G26  22464256.242 7 118050445.305 7     -3265.531          44.378    22464257.600 7  91987371.749 7     -2544.570          44.197    22464257.739 7  91987349.760 7     -2544.569          45.303  
G15  24870034.592 7 130692901.971 7       695.643          45.553    24870034.417 7 101838633.755 7       542.060          43.218    24870034.728 6 101838646.768 6       542.060          37.939  
G08  22302142.454 7 117198554.068 7      2634.007          43.411    22302145.013 7  91323549.430 7      2052.473          43.367    22302145.890 7  91323559.434 7      2052.474          47.895  
G16  20708488.702 7 108823836.825 7     -1502.618          46.687    20708487.115 7  84797791.591 7     -1170.871          43.425                                                                  
G21  21687290.613 7 113967477.648 7     -1922.848          46.747    21687289.557 7  88805825.151 7     -1498.323          42.939                                                                  
> 2020 06 11 13 26 19.0000000  0 11      -0.000000000000
G20  21282950.468 7 111842657.347 7        33.634          47.103    21282949.368 7  87150123.200 7        26.209          44.009                                                                  
G27  20474978.129 8 107596737.178 8      1016.527          49.576    20474979.144 8  83841612.660 8       792.099          49.653    20474979.680 8  83841614.662 8       792.099          50.629  
G10  22106254.768 8 116169156.885 8      2337.117          48.558    22106255.984 8  90521426.227 8      1821.131          48.310    22106255.829 8  90521428.230 8      1821.130          48.151  
G18  22883484.912 7 120253497.491 7     -3105.515          46.338    22883483.983 6  93704037.450 6     -2419.883          40.787    22883484.496 7  93704033.449 7     -2419.883          46.162  
G07  24437897.422 6 128422026.207 6       784.985          41.731    24437897.972 6 100069111.031 6       611.678          40.684    24437898.514 7 100069112.035 7       611.677          44.607  
G11  24678817.095 7 129688075.991 7      3516.233          44.897    24678818.877 5 101055632.177 5      2739.921          31.279                                                                  
G26  22464877.692 7 118053711.086 7     -3265.873          43.562    22464879.041 7  91989916.511 7     -2544.837          43.288    22464879.189 7  91989894.522 7     -2544.836          45.261  
G15  24869902.320 7 130692206.803 7       694.969          44.797    24869902.156 7 101838092.063 7       541.535          43.689    24869902.369 6 101838105.075 6       541.533          38.121  
G08  22301641.236 7 117195920.271 7      2633.686          42.566    22301643.811 7  91321497.119 7      2052.223          42.546    22301644.688 7  91321507.124 7      2052.224          47.833  
G16  20708774.664 7 108825339.530 7     -1503.063          45.948    20708773.070 7  84798962.529 7     -1171.218          44.749                                                                  
G21  21687656.587 7 113969400.796 7     -1923.407          46.187    21687655.526 7  88807323.705 7     -1498.760          43.579                                                                  
> 2020 06 11 13 26 20.0000000  0 11      -0.000000000000
G20  21282944.153 7 111842624.065 7        32.817          46.613    21282943.034 7  87150097.267 7        25.572          44.831                                                                  
G27  20474784.738 8 107595720.941 8      1015.866          48.984    20474785.758 8  83840820.787 8       791.584          49.046    20474786.296 8  83840822.789 8       791.584          50.538  
G10  22105810.079 7 116166820.011 7      2336.552          47.843    22105811.291 7  90519605.286 7      1820.691          47.741    22105811.137 8  90519607.287 8      1820.690          48.216  
G18  22884075.895 7 120256603.104 7     -3105.685          45.568    22884074.970 6  93706457.404 6     -2420.016          41.786    22884075.483 7  93706453.406 7     -2420.016          46.021  
G07  24437748.090 6 128421241.590 6       783.932          40.950    24437748.644 6 100068499.638 6       610.856          40.543    24437749.209 7 100068500.647 7       610.857          44.298  
G11  24678148.044 7 129684560.043 7      3515.691          44.210    24678149.821 5 101052892.484 5      2739.502          33.519                                                                  
G26  22465499.217 7 118056977.233 7     -3266.489          42.768    22465500.566 7  91992461.557 7     -2545.317          42.430    22465500.702 7  91992439.568 7     -2545.317          45.122  
G15  24869770.182 7 130691512.315 7       694.066          44.136    24869770.005 7 101837550.909 7       540.832          44.044    24869770.166 6 101837563.914 6       540.829          37.908  
G08  22301140.087 6 117193286.761 6      2632.985          41.810    22301142.664 7  91319445.033 7      2051.677          42.012    22301143.556 7  91319455.038 7      2051.677          47.662  
G16  20709060.754 7 108826842.924 7     -1504.015          45.323    20709059.151 7  84800134.005 7     -1171.960          44.858                                                                  
G21  21688022.606 7 113971324.256 7     -1923.685          45.592    21688021.540 7  88808822.501 7     -1498.977          43.979                                                                  
> 2020 06 11 13 26 21.0000000  0 11      -0.000000000000
G20  21282937.918 7 111842591.244 7        32.815          44.787    21282936.796 7  87150071.693 7        25.571          42.918                                                                  
G27  20474591.400 7 107594704.915 7      1016.200          47.609    20474592.413 7  83840029.077 7       791.844          47.320    20474592.950 8  83840031.078 8       791.844          49.353  
G10  22105365.448 7 116164483.415 7      2336.780          46.335    22105366.655 7  90517784.562 7      1820.868          46.371    22105366.497 7  90517786.566 7      1820.868          46.347  
G18  22884666.870 7 120259708.718 7     -3105.262          43.759    22884665.944 6  93708877.363 6     -2419.687          38.600    22884666.469 7  93708873.362 7     -2419.687          44.155  
G07  24437598.815 6 128420457.290 6       784.716          38.911    24437599.398 6 100067888.493 6       611.467          38.202    24437599.959 7 100067889.506 7       611.469          42.929  
G11  24677478.949 7 129681043.934 7      3516.229          42.481    24677480.756 5 101050152.669 5      2739.920          32.781                                                                  
G26  22466120.763 6 118060243.487 6     -3265.923          40.796    22466122.105 6  91995006.688 6     -2544.876          41.020    22466122.236 7  91994984.696 7     -2544.876          43.337  
G15  24869638.115 7 130690818.238 7       693.974          42.318    24869637.920 6 101837010.069 6       540.760          41.939    24869638.144 5 101837023.074 5       540.758          35.959  
G08  22300638.947 6 117190653.213 6      2633.971          39.943    22300641.511 6  91317392.919 6      2052.445          39.860    22300642.412 7  91317402.924 7      2052.446          45.969  
G16  20709346.898 7 108828346.698 7     -1503.627          43.672    20709345.314 7  84801305.775 7     -1171.658          43.057                                                                  
G21  21688388.645 7 113973247.779 7     -1923.209          43.838    21688387.553 7  88810321.351 7     -1498.606          42.256                                                                  
> 2020 06 11 13 26 22.0000000  0 11      -0.000000000000
G20  21282931.723 7 111842558.658 7        32.153          46.259    21282930.589 7  87150046.299 7        25.054          43.061                                                                  
G27  20474398.057 8 107593688.869 8      1015.834          48.834    20474399.065 8  83839237.353 8       791.558          48.444    20474399.607 8  83839239.354 8       791.558          49.911  
G10  22104920.828 7 116162146.890 7      2336.229          47.649    22104922.033 7  90515963.894 7      1820.438          47.559    22104921.884 7  90515965.899 7      1820.439          47.359  
G18  22885257.806 7 120262814.099 7     -3105.678          45.115    22885256.870 6  93711297.135 6     -2420.011          38.495    22885257.405 7  93711293.138 7     -2420.011          45.122  
G07  24437449.609 6 128419673.250 6       783.584          40.853    24437450.200 6 100067277.548 6       610.585          39.622    24437450.763 7 100067278.567 7       610.586          43.574  
G11  24676809.782 7 129677527.442 7      3516.352          43.942    24676811.628 5 101047412.534 5      2740.016          32.393                                                                  
G26  22466742.283 7 118063509.629 7     -3266.307          42.637    22466743.637 7  91997551.730 7     -2545.176          42.066    22466743.769 7  91997529.737 7     -2545.177          44.430  
G15  24869506.080 7 130690124.310 7       693.440          43.762    24869505.906 7 101836469.345 7       540.344          42.620    24869506.130 6 101836482.350 6       540.342          37.113  
G08  22300137.748 6 117188019.482 6      2633.669          41.531    22300140.319 6  91315340.660 6      2052.209          41.002    22300141.229 7  91315350.664 7      2052.209          46.912  
G16  20709633.097 7 108829850.652 7     -1504.428          44.968    20709631.511 7  84802477.685 7     -1172.283          43.358                                                                  
G21  21688754.648 7 113975171.139 7     -1923.575          45.367    21688753.556 7  88811820.071 7     -1498.891          42.824                                                                  
> 2020 06 11 13 26 23.0000000  0 11      -0.000000000000
G20  21282925.659 7 111842526.691 7        31.368          46.022    21282924.502 7  87150021.389 7        24.443          44.823                                                                  
G27  20474204.775 8 107592673.191 8      1015.243          48.797    20474205.786 8  83838445.914 8       791.098          48.861    20474206.335 8  83838447.915 8       791.098          50.574  
G10  22104476.294 7 116159810.807 7      2335.540          47.662    22104477.496 7  90514143.569 7      1819.901          47.597    22104477.347 8  90514145.576 8      1819.902          48.282  
G18  22885848.759 7 120265919.631 7     -3105.859          45.126    22885847.830 6  93713717.031 6     -2420.151          40.985    22885848.364 7  93713713.029 7     -2420.152          46.236  
G07  24437300.485 6 128418889.727 6       782.932          40.695    24437301.109 6 100066667.019 6       610.077          40.439    24437301.672 7 100066668.031 7       610.078          44.734  
G11  24676140.640 7 129674010.993 7      3516.063          43.718    24676142.464 5 101044672.452 5      2739.791          35.397                                                                  
G26  22467363.850 7 118066776.040 7     -3266.828          42.700    22467365.218 7  92000096.982 7     -2545.583          42.253    22467365.328 7  92000074.986 7     -2545.584          45.417  
G15  24869374.155 7 130689430.938 7       692.744          43.652    24869373.967 7 101835929.057 7       539.801          43.519    24869374.157 6 101835942.064 6       539.801          37.955  
G08  22299636.578 6 117185385.904 6      2632.994          41.058    22299639.158 6  91313288.519 6      2051.683          41.378    22299640.086 7  91313298.523 7      2051.683          47.854  
G16  20709919.399 7 108831355.172 7     -1504.963          44.843    20709917.816 7  84803650.036 7     -1172.699          44.645                                                                  
G21  21689120.697 7 113977094.717 7     -1923.810          45.231    21689119.605 7  88813318.961 7     -1499.073          44.040                                                                  
> 2020 06 11 13 26 24.0000000  0 11      -0.000000000000
G20  21282919.964 7 111842496.755 7        28.161          47.051    21282918.799 7  87149998.062 7        21.944          43.134                                                                  
G27  20474011.834 8 107591659.297 8      1012.189          49.622    20474012.848 8  83837655.867 8       788.719          49.791    20474013.394 8  83837657.868 8       788.718          50.250  
G10  22104032.103 8 116157476.563 8      2332.430          48.580    22104033.307 8  90512324.677 8      1817.478          48.735    22104033.163 7  90512326.684 7      1817.479          47.573  
G18  22886440.010 7 120269026.723 7     -3108.805          46.278    22886439.100 6  93716138.140 6     -2422.447          39.388    22886439.624 7  93716134.137 7     -2422.448          45.702  
G07  24437151.747 6 128418108.163 6       779.851          41.664    24437152.374 6 100066058.010 6       607.677          40.692    24437152.953 7 100066059.019 7       607.677          44.079  
G11  24675471.761 7 129670495.975 7      3513.421          44.797    24675473.551 5 101041933.480 5      2737.734          33.413                                                                  
G26  22467985.739 7 118070044.092 7     -3269.546          43.823    22467987.100 7  92002643.513 7     -2547.700          43.853    22467987.215 7  92002621.516 7     -2547.702          44.756  
G15  24869242.598 7 130688739.543 7       689.486          44.618    24869242.401 7 101835390.306 7       537.263          43.953    24869242.586 6 101835403.314 6       537.262          38.177  
G08  22299135.713 7 117182753.881 7      2630.432          42.371    22299138.291 7  91311237.592 7      2049.687          42.728    22299139.241 7  91311247.596 7      2049.687          47.333  
G16  20710206.062 7 108832861.637 7     -1508.290          45.946    20710204.486 7  84804823.905 7     -1175.292          44.645                                                                  
G21  21689487.051 7 113979019.926 7     -1926.916          46.267    21689485.960 7  88814819.125 7     -1501.493          43.682                                                                  
> 2020 06 11 13 26 25.0000000  0 11      -0.000000000000
G20  21282914.803 7 111842469.635 7        26.751          46.137    21282913.635 7  87149976.928 7        20.845          44.646                                                                  
G27  20473819.374 8 107590647.948 8      1011.031          48.936    20473820.394 8  83836867.802 8       787.816          48.841    20473820.939 8  83836869.802 8       787.816          50.171  
G10  22103588.416 7 116155144.969 7      2331.183          47.706    22103589.623 7  90510507.850 7      1816.506          47.852    22103589.472 7  90510509.857 7      1816.506          47.550  
G18  22887031.712 7 120272136.134 7     -3109.592          45.347    22887030.803 6  93718561.056 6     -2423.060          40.793    22887031.327 7  93718557.054 7     -2423.061          45.616  
G07  24437003.533 6 128417329.359 6       778.438          40.558    24437004.150 6 100065451.149 6       606.575          40.310    24437004.756 7 100065452.156 7       606.575          43.940  
G11  24674803.287 7 129666983.143 7      3512.718          43.937    24674805.041 5 101039196.214 5      2737.186          33.241                                                                  
G26  22468608.118 7 118073314.628 7     -3270.832          43.080    22468609.464 7  92005191.980 7     -2548.702          43.075    22468609.574 7  92005169.981 7     -2548.703          44.869  
G15  24869111.555 7 130688050.890 7       688.278          43.790    24869111.331 7 101834853.696 7       536.321          43.141    24869111.525 6 101834866.700 6       536.320          37.971  
G08  22298635.291 6 117180124.238 6      2629.233          41.335    22298637.879 6  91309188.521 6      2048.753          41.803    22298638.827 7  91309198.524 7      2048.753          47.283  
G16  20710493.263 7 108834370.873 7     -1509.673          45.114    20710491.679 7  84805999.931 7     -1176.370          44.252                                                                  
G21  21689853.870 7 113980947.543 7     -1927.871          45.361    21689852.769 7  88816321.159 7     -1502.240          43.878                                                                  
> 2020 06 11 13 26 26.0000000  0 11      -0.000000000000
G20  21282909.613 7 111842442.315 7        28.282          46.390    21282908.430 7  87149955.642 7        22.038          43.460                                                                  
G27  20473626.834 8 107589636.160 8      1012.726          49.120    20473627.856 8  83836079.395 8       789.137          49.204    20473628.404 8  83836081.396 8       789.136          50.254  
G10  22103144.658 7 116152813.003 7      2332.754          47.944    22103145.868 8  90508690.733 8      1817.730          48.098    22103145.725 7  90508692.738 7      1817.730          47.591  
G18  22887623.291 7 120275244.911 7     -3107.887          45.665    22887622.391 6  93720983.476 6     -2421.732          39.976    22887622.898 7  93720979.475 7     -2421.732          45.589  
G07  24436855.262 6 128416550.283 6       779.791          40.762    24436855.915 6 100064844.078 6       607.630          41.364    24436856.493 7 100064845.083 7       607.629          43.886  
G11  24674134.676 7 129663469.537 7      3514.843          44.182    24674136.407 5 101036458.343 5      2738.843          35.086                                                                  
G26  22469230.364 7 118076584.585 7     -3268.895          43.345    22469231.712 7  92007739.999 7     -2547.192          43.862    22469231.831 7  92007717.999 7     -2547.193          44.628  
G15  24868980.470 7 130687361.968 7       689.819          43.836    24868980.235 7 101834316.874 7       537.522          43.247    24868980.478 6 101834329.878 6       537.521          38.039  
G08  22298134.730 6 117177493.950 6      2631.103          41.642    22298137.345 6  91307138.945 6      2050.210          41.581    22298138.286 7  91307148.950 7      2050.210          47.279  
G16  20710780.399 7 108835879.848 7     -1508.038          45.384    20710778.826 7  84807175.756 7     -1175.095          44.552                                                                  
G21  21690220.573 7 113982874.565 7     -1925.972          45.628    21690219.460 7  88817822.731 7     -1500.760          43.868                                                                  
> 2020 06 11 13 26 27.0000000  0 11      -0.000000000000
G20  21282904.167 7 111842413.700 7        29.108          45.558    21282903.001 7  87149933.348 7        22.683          44.819                                                                  
G27  20473433.992 8 107588622.808 8      1014.067          48.338    20473435.020 8  83835289.770 8       790.182          48.286    20473435.567 8  83835291.771 8       790.182          50.204  
G10  22102700.617 7 116150479.538 7      2334.074          47.116    22102701.827 7  90506872.448 7      1818.759          46.932    22102701.688 7  90506874.452 7      1818.759          47.669  
G18  22888214.533 7 120278351.894 7     -3106.275          44.694    22888213.618 6  93723404.498 6     -2420.476          40.668    22888214.144 7  93723400.498 7     -2420.476          45.704  
G07  24436706.711 6 128415769.813 6       781.229          39.862    24436707.394 6 100064235.924 6       608.752          39.362    24436707.969 7 100064236.928 7       608.751          44.098  
G11  24673465.704 7 129659954.026 7      3516.373          43.273    24673467.377 5 101033718.984 5      2740.031          32.527                                                                  
G26  22469852.287 7 118079852.890 7     -3267.530          42.367    22469853.650 7  92010286.731 7     -2546.128          42.090    22469853.772 7  92010264.730 7     -2546.129          44.385  
G15  24868849.117 7 130686671.683 7       690.862          43.149    24868848.868 7 101833778.991 7       538.335          43.285    24868849.121 6 101833791.993 6       538.334          37.849  
G08  22297633.845 6 117174861.868 6      2632.985          40.652    22297636.471 6  91305087.973 6      2051.677          40.153    22297637.419 7  91305097.977 7      2051.677          47.342  
G16  20711067.283 7 108837387.446 7     -1507.164          44.379    20711065.719 7  84808350.509 7     -1174.414          43.880                                                                  
G21  21690586.960 7 113984799.881 7     -1924.654          44.668    21690585.833 7  88819322.978 7     -1499.732          43.822                                                                  
> 2020 06 11 13 26 28.0000000  0 11      -0.000000000000
G20  21282898.664 7 111842384.685 7        28.911          45.814    21282897.488 7  87149910.740 7        22.530          43.603                                                                  
G27  20473241.034 8 107587608.810 8      1014.030          48.709    20473242.061 8  83834499.642 8       790.154          48.757    20473242.616 8  83834501.644 8       790.154          50.205  
G10  22102256.465 7 116148145.495 7      2334.169          47.329    22102257.675 7  90505053.716 7      1818.834          47.045    22102257.540 7  90505055.718 7      1818.833          47.978  
G18  22888805.608 7 120281458.019 7     -3105.974          45.129    22888804.688 6  93725824.853 6     -2420.241          40.806    22888805.223 7  93725820.855 7     -2420.241          45.942  
G07  24436558.098 6 128414988.917 6       780.690          40.030    24436558.786 6 100063627.434 6       608.331          40.095    24436559.366 7 100063628.442 7       608.331          43.999  
G11  24672796.529 7 129656437.514 7      3516.706          43.580    24672798.214 5 101030978.827 5      2740.289          34.879                                                                  
G26  22470474.091 7 118083120.441 7     -3267.291          42.564    22470475.443 7  92012832.876 7     -2545.941          42.224    22470475.576 7  92012810.876 7     -2545.941          44.972  
G15  24868717.673 7 130685980.952 7       690.525          43.393    24868717.427 7 101833240.764 7       538.073          43.329    24868717.698 6 101833253.765 6       538.072          38.094  
G08  22297132.809 6 117172228.967 6      2633.092          41.011    22297135.440 6  91303036.365 6      2051.761          40.930    22297136.390 7  91303046.369 7      2051.761          47.609  
G16  20711354.081 7 108838894.588 7     -1507.133          44.639    20711352.522 7  84809524.909 7     -1174.388          44.034                                                                  
G21  21690953.183 7 113986724.398 7     -1924.411          44.980    21690952.064 7  88820822.602 7     -1499.542          43.030                                                                  
> 2020 06 11 13 26 29.0000000  0 11      -0.000000000000
G20  21282893.054 7 111842355.196 7        29.633          46.284    21282891.857 7  87149887.763 7        23.092          43.413                                                                  
G27  20473047.935 8 107586594.095 8      1015.002          49.054    20473048.966 8  83833708.957 8       790.911          49.272    20473049.528 8  83833710.958 8       790.911          49.807  
G10  22101812.202 7 116145810.830 7      2334.854          47.847    22101813.406 7  90503234.499 7      1819.368          47.809    22101813.272 7  90503236.501 7      1819.368          47.547  
G18  22889396.498 7 120284563.190 7     -3104.676          45.587    22889395.585 6  93728244.466 6     -2419.229          39.255    22889396.122 7  93728240.468 7     -2419.229          45.336  
G07  24436409.375 6 128414207.461 6       781.486          40.741    24436410.082 6 100063018.519 6       608.953          39.906    24436410.667 7 100063019.518 7       608.952          43.614  
G11  24672127.154 7 129652919.928 7      3518.114          44.165    24672128.917 5 101028237.855 5      2741.386          32.364                                                                  
G26  22471095.743 7 118086387.171 7     -3266.291          43.073    22471097.075 7  92015378.381 7     -2545.161          43.398    22471097.215 7  92015356.383 7     -2545.161          44.281  
G15  24868586.140 7 130685289.674 7       691.283          44.021    24868585.900 7 101832702.107 7       538.664          43.217    24868586.145 6 101832715.112 6       538.664          37.278  
G08  22296631.601 6 117169595.117 6      2634.280          41.382    22296634.228 6  91300984.017 6      2052.687          41.386    22296635.177 7  91300994.020 7      2052.687          46.925  
G16  20711640.778 7 108840401.192 7     -1506.407          45.095    20711639.214 7  84810698.886 7     -1173.823          44.320                                                                  
G21  21691319.256 7 113988648.038 7     -1923.193          45.650    21691318.121 7  88822321.545 7     -1498.592          42.581                                                                  
> 2020 06 11 13 26 30.0000000  0 11      -0.000000000000
G20  21282887.554 7 111842326.286 7        28.480          47.057    21282886.356 7  87149865.238 7        22.193          43.147                                                                  
G27  20472854.895 8 107585579.698 8      1013.978          49.765    20472855.935 8  83832918.518 8       790.113          49.812    20472856.494 8  83832920.519 8       790.113          50.001  
G10  22101368.007 8 116143476.539 8      2333.809          48.756    22101369.206 8  90501415.574 8      1818.554          48.813    22101369.068 7  90501417.577 7      1818.554          47.601  
G18  22889987.397 7 120287668.466 7     -3105.458          46.463    22889986.491 6  93730664.161 6     -2419.839          37.991    22889987.027 7  93730660.165 7     -2419.838          45.154  
G07  24436260.737 6 128413426.500 6       780.522          41.870    24436261.435 6 100062409.974 6       608.200          38.791    24436262.045 7 100062410.977 7       608.200          43.832  
G11  24671457.786 7 129649402.328 7      3517.429          45.270    24671459.554 5 101025496.868 5      2740.854          32.083                                                                  
G26  22471717.411 7 118089654.109 7     -3267.080          43.840    22471718.749 7  92017924.049 7     -2545.776          43.524    22471718.897 7  92017902.054 7     -2545.775          44.371  
G15  24868454.715 7 130684598.905 7       690.179          45.206    24868454.457 7 101832163.846 7       537.804          43.513    24868454.687 6 101832176.856 6       537.805          37.261  
G08  22296130.411 7 117166961.408 7      2633.353          42.645    22296133.041 7  91298931.776 7      2051.964          42.040    22296133.992 7  91298941.780 7      2051.964          46.988  
G16  20711927.571 7 108841908.323 7     -1507.532          46.135    20711926.009 7  84811873.275 7     -1174.700          43.247                                                                  
G21  21691685.365 7 113990571.860 7     -1924.201          46.547    21691684.215 7  88823820.629 7     -1499.377          42.284                                                                  
> 2020 06 11 13 26 31.0000000  0 11      -0.000000000000
G20  21282882.277 7 111842298.484 7        27.362          45.140    21282881.067 7  87149843.575 7        21.322          44.235                                                                  
G27  20472662.027 8 107584566.157 8      1013.246          48.234    20472663.064 8  83832128.747 8       789.543          48.224    20472663.624 8  83832130.748 8       789.543          50.051  
G10  22100923.994 7 116141143.197 7      2332.962          47.102    22100925.187 7  90499597.387 7      1817.894          47.097    22100925.054 7  90499599.393 7      1817.895          47.455  
G18  22890578.428 7 120290774.400 7     -3106.103          44.304    22890577.509 6  93733084.370 6     -2420.341          41.497    22890578.075 7  93733080.374 7     -2420.341          45.361  
G07  24436112.296 6 128412646.593 6       779.437          39.271    24436113.049 6 100061802.253 6       607.355          38.614    24436113.653 7 100061803.259 7       607.355          43.967  
G11  24670788.507 7 129645885.243 7      3516.832          43.137    24670790.323 5 101022756.292 5      2740.392          34.416                                                                  
G26  22472339.232 6 118092921.821 6     -3267.994          41.608    22472340.579 6  92020470.318 6     -2546.489          41.745    22472340.724 7  92020448.325 7     -2546.488          44.435  
G15  24868323.471 7 130683909.188 7       689.284          43.107    24868323.227 7 101831626.409 7       537.107          43.236    24868323.482 6 101831639.417 6       537.107          37.825  
G08  22295629.331 6 117164328.358 6      2632.630          40.324    22295631.987 6  91296880.048 6      2051.401          39.744    22295632.938 7  91296890.054 7      2051.401          47.132  
G16  20712214.554 7 108843416.504 7     -1508.645          44.128    20712212.999 7  84813048.480 7     -1175.567          43.957                                                                  
G21  21692051.608 7 113992496.392 7     -1924.831          44.557    21692050.453 7  88825320.262 7     -1499.869          43.909                                                                  
> 2020 06 11 13 26 32.0000000  0 11      -0.000000000000
G20  21282877.052 7 111842271.102 7        27.112          45.424    21282875.851 7  87149822.239 7        21.128          42.830                                                                  
G27  20472469.188 8 107583552.792 8      1013.245          48.617    20472470.228 8  83831339.112 8       789.542          48.467    20472470.783 8  83831341.114 8       789.542          50.140  
G10  22100480.028 7 116138810.094 7      2332.931          47.406    22100481.210 7  90497779.385 7      1817.870          47.107    22100481.087 7  90497781.392 7      1817.871          47.544  
G18  22891169.452 7 120293880.262 7     -3105.867          44.826    22891168.550 6  93735504.520 6     -2420.157          39.300    22891169.092 7  93735500.523 7     -2420.157          45.584  
G07  24435963.953 6 128411867.025 6       779.453          39.992    24435964.706 6 100061194.801 6       607.369          38.931    24435965.296 7 100061195.805 7       607.368          43.937  
G11  24670119.180 7 129642367.952 7      3517.294          43.669    24670120.985 5 101020015.561 5      2740.754          34.348                                                                  
G26  22472961.053 6 118096189.558 6     -3267.802          41.834    22472962.408 6  92023016.607 6     -2546.339          40.929    22472962.542 7  92022994.615 7     -2546.338          44.688  
G15  24868192.293 7 130683219.817 7       688.975          43.758    24868192.046 7 101831089.238 7       536.865          43.575    24868192.331 6 101831102.244 6       536.866          37.699  
G08  22295128.246 6 117161695.279 6      2632.956          41.037    22295130.924 6  91294828.298 6      2051.655          40.858    22295131.881 7  91294838.305 7      2051.655          47.219  
G16  20712501.610 7 108844925.012 7     -1508.631          44.640    20712500.044 7  84814223.938 7     -1175.557          44.221                                                                  
G21  21692417.825 7 113994420.922 7     -1924.666          44.840    21692416.688 7  88826819.895 7     -1499.740          43.083                                                                  
> 2020 06 11 13 26 33.0000000  0 11      -0.000000000000
G20  21282871.960 7 111842244.340 7        26.291          46.360    21282870.745 7  87149801.385 7        20.487          42.413                                                                  
G27  20472276.419 8 107582539.796 8      1012.344          49.289    20472277.462 8  83830549.765 8       788.840          49.323    20472278.015 8  83830551.767 8       788.840          50.227  
G10  22100036.138 8 116136477.437 8      2332.025          48.128    22100037.320 8  90495961.732 8      1817.163          48.384    22100037.199 7  90495963.739 7      1817.164          47.291  
G18  22891760.516 7 120296986.297 7     -3106.580          45.827    22891759.624 6  93737924.805 6     -2420.713          38.706    22891760.159 7  93737920.806 7     -2420.714          45.577  
G07  24435815.694 6 128411088.036 6       778.253          41.085    24435816.468 6 100060587.796 6       606.431          37.995    24435817.067 7 100060588.800 7       606.432          44.148  
G11  24669449.899 7 129638850.719 7      3516.744          44.579    24669451.726 5 101017274.871 5      2740.326          30.288                                                                  
G26  22473582.933 7 118099457.567 7     -3268.303          42.633    22473584.287 7  92025563.104 7     -2546.730          42.838    22473584.445 7  92025541.116 7     -2546.729          44.974  
G15  24868061.222 7 130682531.009 7       688.113          44.601    24868060.985 7 101830552.503 7       536.193          42.949    24868061.288 6 101830565.514 6       536.195          38.014  
G08  22294627.181 6 117159062.365 6      2632.404          41.666    22294629.888 6  91292776.677 6      2051.224          41.674    22294630.853 7  91292786.684 7      2051.225          47.197  
G16  20712788.775 7 108846434.108 7     -1509.859          45.549    20712787.232 7  84815399.859 7     -1176.514          42.855                                                                  
G21  21692784.095 7 113996345.678 7     -1925.174          45.821    21692782.966 6  88828319.704 6     -1500.136          41.933                                                                  
> 2020 06 11 13 26 34.0000000  0 11      -0.000000000000
G20  21282867.022 7 111842218.397 7        25.482          45.294    21282865.800 7  87149781.171 7        19.857          43.787                                                                  
G27  20472083.753 8 107581527.333 8      1012.332          48.467    20472084.798 8  83829760.832 8       788.831          48.411    20472085.352 8  83829762.833 8       788.831          50.193  
G10  22099592.369 7 116134145.398 7      2331.734          47.200    22099593.543 7  90494144.558 7      1816.936          47.442    22099593.432 7  90494146.564 7      1816.936          47.379  
G18  22892351.620 7 120300092.638 7     -3106.412          44.785    22892350.748 6  93740345.329 6     -2420.582          39.918    22892351.274 7  93740341.327 7     -2420.583          45.436  
G07  24435667.586 6 128410309.767 6       778.005          39.840    24435668.377 6 100059981.346 6       606.238          39.091    24435668.958 7 100059982.357 7       606.239          44.047  
G11  24668780.623 7 129635333.654 7      3517.037          43.818    24668782.495 5 101014534.300 5      2740.551          33.201                                                                  
G26  22474204.888 6 118102726.052 6     -3268.715          41.495    22474206.266 6  92028109.974 6     -2547.051          41.715    22474206.428 7  92028087.984 7     -2547.051          45.050  
G15  24867930.283 7 130681842.948 7       687.694          43.442    24867930.067 7 101830016.349 7       535.866          43.518    24867930.382 6 101830029.363 6       535.868          38.420  
G08  22294126.220 6 117156429.830 6      2632.450          40.621    22294128.928 6  91290725.355 6      2051.261          40.801    22294129.901 7  91290735.361 7      2051.261          47.271  
G16  20713076.074 7 108847943.915 7     -1510.113          44.280    20713074.542 7  84816576.333 7     -1176.711          44.252                                                                  
G21  21693150.455 7 113998270.838 7     -1925.218          44.768    21693149.316 7  88829819.834 7     -1500.169          43.529                                                                  
> 2020 06 11 13 26 35.0000000  0 11      -0.000000000000
G20  21282862.282 7 111842193.491 7        24.268          45.437    21282861.067 7  87149761.764 7        18.911          43.937                                                                  
G27  20471891.240 8 107580515.690 8      1011.033          48.652    20471892.287 8  83828972.537 8       787.818          48.631    20471892.847 8  83828974.539 8       787.818          50.179  
G10  22099148.747 7 116131814.128 7      2330.588          47.382    22099149.919 7  90492327.983 7      1816.043          46.963    22099149.812 7  90492329.986 7      1816.042          47.454  
G18  22892942.845 7 120303199.577 7     -3107.456          44.919    22892941.966 6  93742766.318 6     -2421.396          40.352    22892942.499 7  93742762.315 7     -2421.397          45.436  
G07  24435519.642 6 128409532.479 6       776.669          40.040    24435520.474 6 100059375.670 6       605.197          39.342    24435521.074 7 100059376.677 7       605.197          44.052  
G11  24668111.450 7 129631817.072 7      3516.154          43.709    24668113.318 5 101011794.101 5      2739.864          31.722                                                                  
G26  22474826.967 6 118105995.214 6     -3269.724          41.844    22474828.376 6  92030657.366 6     -2547.840          40.997    22474828.536 7  92030635.377 7     -2547.839          45.097  
G15  24867799.557 7 130681155.869 7       686.488          43.550    24867799.319 7 101829480.959 7       534.925          43.370    24867799.677 6 101829493.977 6       534.927          38.421  
G08  22293625.379 6 117153797.897 6      2631.478          41.082    22293628.082 6  91288674.498 6      2050.503          40.723    22293629.058 7  91288684.503 7      2050.503          47.203  
G16  20713363.557 7 108849454.733 7     -1511.574          44.644    20713362.049 7  84817753.591 7     -1177.850          43.910                                                                  
G21  21693516.934 7 114000196.654 7     -1926.276          44.932    21693515.787 7  88831320.468 7     -1500.994          43.814                                                                  
> 2020 06 11 13 26 36.0000000  0 11      -0.000000000000
G20  21282857.808 7 111842169.947 7        23.153          44.748    21282856.584 7  87149743.415 7        18.041          44.617                                                                  
G27  20471698.934 8 107579505.132 8      1010.316          48.008    20471699.981 7  83828185.087 7       787.259          47.755    20471700.541 8  83828187.089 8       787.259          50.119  
G10  22098705.374 7 116129484.146 7      2329.712          46.646    22098706.540 7  90490512.410 7      1815.360          46.765    22098706.437 7  90490514.411 7      1815.359          47.528  
G18  22893534.255 7 120306307.400 7     -3107.920          44.125    22893533.353 6  93745187.996 6     -2421.758          41.691    22893533.903 7  93745183.993 7     -2421.759          45.251  
G07  24435371.973 6 128408756.482 6       775.678          39.018    24435372.798 6 100058770.995 6       604.423          39.269    24435373.405 7 100058772.001 7       604.424          44.009  
G11  24667442.413 7 129628301.232 7      3515.707          43.020    24667444.306 5 101009054.488 5      2739.514          32.625                                                                  
G26  22475449.259 6 118109265.365 6     -3270.299          41.131    22475450.666 6  92033205.526 6     -2548.289          41.576    22475450.815 7  92033183.539 7     -2548.288          45.222  
G15  24867669.067 7 130680470.085 7       685.451          42.865    24867668.841 7 101828946.580 7       534.116          42.741    24867669.167 6 101828959.596 6       534.117          38.180  
G08  22293124.667 6 117151166.837 6      2631.063          40.255    22293127.402 6  91286624.321 6      2050.179          40.072    22293128.387 7  91286634.326 7      2050.180          47.077  
G16  20713651.285 7 108850966.830 7     -1512.291          43.843    20713649.794 7  84818931.845 7     -1178.409          43.459                                                                  
G21  21693883.589 7 114002123.427 7     -1927.028          44.150    21693882.447 7  88832821.845 7     -1501.581          43.758                                                                  
> 2020 06 11 13 26 37.0000000  0 11      -0.000000000000
G20  21282853.366 7 111842146.598 7        22.735          46.745    21282852.122 7  87149725.221 7        17.715          43.376                                                                  
G27  20471506.621 8 107578494.535 8      1010.134          49.474    20471507.669 8  83827397.608 8       787.116          49.596    20471508.236 8  83827399.610 8       787.117          50.101  
G10  22098262.011 8 116127154.197 8      2329.415          48.357    22098263.168 8  90488696.865 8      1815.129          48.093    22098263.061 7  90488698.865 7      1815.128          47.634  
G18  22894125.603 7 120309414.948 7     -3107.859          46.064    22894124.706 6  93747609.461 6     -2421.711          39.412    22894125.246 7  93747605.456 7     -2421.711          45.328  
G07  24435224.339 6 128407980.604 6       775.488          41.275    24435225.146 6 100058166.403 6       604.274          40.517    24435225.756 7 100058167.418 7       604.276          43.940  
G11  24666773.320 7 129624785.001 7      3515.881          45.006    24666775.207 5 101006314.560 5      2739.647          32.213                                                                  
G26  22476071.530 7 118112535.382 7     -3270.630          43.330    22476072.946 7  92035753.584 7     -2548.548          43.185    22476073.094 7  92035731.597 7     -2548.547          45.233  
G15  24867538.620 7 130679784.435 7       685.306          44.835    24867538.378 7 101828412.305 7       534.003          44.249    24867538.678 6 101828425.322 6       534.004          37.899  
G08  22292623.920 7 117148535.537 7      2630.979          42.238    22292626.678 7  91284573.956 7      2050.114          42.021    22292627.669 7  91284583.962 7      2050.114          47.113  
G16  20713939.057 7 108852479.072 7     -1512.751          45.776    20713937.556 7  84820110.210 7     -1178.769          44.610                                                                  
G21  21694250.202 7 114004049.971 7     -1926.732          46.114    21694249.056 7  88834323.044 7     -1501.351          42.981                                                                  
> 2020 06 11 13 26 38.0000000  0 11      -0.000000000000
G20  21282849.108 7 111842124.189 7        22.325          45.836    21282847.860 7  87149707.759 7        17.396          43.451                                                                  
G27  20471314.439 8 107577484.617 8      1009.889          48.915    20471315.488 8  83826610.660 8       786.926          48.745    20471316.055 8  83826612.662 8       786.926          50.066  
G10  22097818.781 7 116124825.001 7      2329.260          47.674    22097819.940 7  90486881.911 7      1815.009          47.777    22097819.833 7  90486883.910 7      1815.008          47.637  
G18  22894717.038 7 120312522.956 7     -3107.844          45.354    22894716.132 6  93750031.281 6     -2421.699          39.230    22894716.683 7  93750027.280 7     -2421.699          45.329  
G07  24435076.855 6 128407205.608 6       775.150          40.146    24435077.709 6 100057562.517 6       604.013          40.070    24435078.271 7 100057563.528 7       604.013          43.873  
G11  24666104.279 7 129621269.108 7      3515.989          44.131    24666106.166 5 101003574.904 5      2739.731          34.696                                                                  
G26  22476693.904 7 118115805.937 7     -3270.596          42.550    22476695.331 7  92038302.067 7     -2548.520          42.828    22476695.467 7  92038280.077 7     -2548.521          45.397  
G15  24867408.325 7 130679099.664 7       684.767          43.763    24867408.098 7 101827878.717 7       533.584          43.912    24867408.391 6 101827891.735 6       533.585          38.129  
G08  22292123.270 6 117145904.724 6      2630.660          41.233    22292126.041 6  91282523.974 6      2049.866          40.989    22292127.039 7  91282533.980 7      2049.866          47.095  
G16  20714226.991 7 108853992.192 7     -1513.180          44.865    20714225.490 7  84821289.266 7     -1179.102          43.989                                                                  
G21  21694616.920 7 114005977.084 7     -1926.981          45.282    21694615.774 7  88835824.692 7     -1501.544          44.157                                                                  
> 2020 06 11 13 26 39.0000000  0 11      -0.000000000000
G20  21282844.871 7 111842101.971 7        22.217          45.866    21282843.627 7  87149690.445 7        17.312          43.819                                                                  
G27  20471122.241 8 107576474.637 8      1010.044          49.000    20471123.293 8  83825823.662 8       787.047          48.948    20471123.862 8  83825825.664 8       787.047          50.121  
G10  22097375.563 7 116122495.826 7      2329.247          47.969    22097376.718 8  90485066.971 8      1814.999          48.111    22097376.601 7  90485068.972 7      1814.999          47.589  
G18  22895308.428 7 120315630.685 7     -3107.440          45.664    22895307.526 6  93752452.891 6     -2421.383          40.065    22895308.072 7  93752448.888 7     -2421.384          45.328  
G07  24434929.396 6 128406430.737 6       775.038          40.559    24434930.264 6 100056958.722 6       603.926          40.904    24434930.797 7 100056959.735 7       603.927          43.894  
G11  24665435.144 7 129617752.793 7      3516.593          44.534    24665437.022 5 101000834.904 5      2740.201          32.674                                                                  
G26  22477316.232 7 118119076.343 7     -3270.219          42.902    22477317.679 7  92040850.434 7     -2548.225          42.840    22477317.789 7  92040828.439 7     -2548.227          45.235  
G15  24867278.059 7 130678415.020 7       684.616          44.097    24867277.822 7 101827345.230 7       533.467          43.829    24867278.119 6 101827358.246 6       533.467          38.276  
G08  22291622.569 6 117143273.636 6      2631.565          41.197    22291625.352 6  91280473.778 6      2050.572          40.834    22291626.355 7  91280483.782 7      2050.571          47.106  
G16  20714514.950 7 108855505.442 7     -1513.411          44.963    20714513.455 7  84822468.422 7     -1179.282          43.976                                                                  
G21  21694983.601 7 114007903.970 7     -1926.603          45.464    21694982.450 7  88837326.161 7     -1501.250          44.047                                                                  
> 2020 06 11 13 26 40.0000000  0 11      -0.000000000000
G20  21282840.694 7 111842080.036 7        21.714          45.983    21282839.439 7  87149673.354 7        16.920          43.613                                                                  
G27  20470930.063 8 107575464.716 8      1009.691          49.041    20470931.111 8  83825036.710 8       786.772          49.116    20470931.681 8  83825038.713 8       786.772          50.086  
G10  22096932.368 8 116120166.769 8      2328.755          48.073    22096933.516 8  90483252.121 8      1814.615          48.247    22096933.395 7  90483254.127 7      1814.616          47.513  
G18  22895899.779 7 120318738.246 7     -3107.674          45.576    22895898.877 6  93754874.366 6     -2421.565          40.549    22895899.409 7  93754870.363 7     -2421.565          45.323  
G07  24434781.985 6 128405656.117 6       774.120          40.797    24434782.849 6 100056355.121 6       603.211          38.574    24434783.395 7 100056356.136 7       603.211          44.028  
G11  24664765.971 7 129614236.187 7      3516.456          44.257    24664767.853 5 100998094.699 5      2740.095          34.648                                                                  
G26  22477938.547 7 118122346.702 7     -3270.510          42.910    22477940.016 7  92043398.766 7     -2548.452          42.575    22477940.127 7  92043376.768 7     -2548.453          45.219  
G15  24867147.829 7 130677730.628 7       683.759          44.157    24867147.592 7 101826811.935 7       532.799          44.040    24867147.874 6 101826824.954 6       532.800          38.483  
G08  22291121.829 6 117140642.409 6      2630.976          41.268    22291124.634 6  91278423.472 6      2050.112          41.777    22291125.642 7  91278433.476 7      2050.111          47.004  
G16  20714802.960 7 108857018.920 7     -1513.934          45.152    20714801.455 7  84823647.755 7     -1179.690          44.593                                                                  
G21  21695350.255 7 114009830.754 7     -1926.937          45.694    21695349.105 7  88838827.544 7     -1501.511          43.649                                                                  
> 2020 06 11 13 26 41.0000000  0 11      -0.000000000000
G20  21282836.651 7 111842058.868 7        21.196          46.152    21282835.418 7  87149656.862 7        16.517          43.647                                                                  
G27  20470737.978 8 107574455.282 8      1009.573          49.011    20470739.021 8  83824250.138 8       786.680          48.973    20470739.592 8  83824252.141 8       786.681          50.069  
G10  22096489.272 8 116117838.278 8      2328.586          48.056    22096490.420 8  90481437.712 8      1814.483          48.009    22096490.297 7  90481439.721 7      1814.485          47.259  
G18  22896491.176 7 120321846.086 7     -3107.801          45.572    22896490.298 6  93757296.056 6     -2421.665          39.845    22896490.815 7  93757292.058 7     -2421.664          45.298  
G07  24434634.688 6 128404882.145 6       773.816          40.391    24434635.560 6 100055752.028 6       602.973          40.052    24434636.104 7 100055753.041 7       602.974          43.827  
G11  24664096.821 7 129610719.726 7      3516.511          44.440    24664098.713 5 100995354.616 5      2740.142          33.251                                                                  
G26  22478560.933 7 118125617.420 7     -3270.389          42.644    22478562.430 7  92045947.376 7     -2548.357          42.243    22478562.523 7  92045925.377 7     -2548.359          45.122  
G15  24867017.720 7 130677046.886 7       683.685          44.172    24867017.472 7 101826279.149 7       532.741          44.195    24867017.808 6 101826292.169 6       532.742          37.845  
G08  22290621.169 6 117138011.472 6      2630.988          41.326    22290623.978 6  91276373.392 6      2050.122          41.252    22290624.984 7  91276383.394 7      2050.121          47.074  
G16  20715091.095 7 108858533.092 7     -1514.281          45.029    20715089.595 7  84824827.626 7     -1179.960          44.083                                                                  
G21  21695716.979 7 114011757.877 7     -1926.982          45.657    21695715.832 7  88840329.194 7     -1501.547          43.731                                                                  
> 2020 06 11 13 26 42.0000000  0 11      -0.000000000000
G20  21282832.743 7 111842038.314 7        19.876          46.019    21282831.504 7  87149640.848 7        15.489          42.976                                                                  
G27  20470545.953 8 107573446.193 8      1008.725          48.968    20470546.999 8  83823463.835 8       786.019          49.114    20470547.566 8  83823465.838 8       786.019          49.884  
G10  22096046.259 7 116115510.219 7      2327.800          47.926    22096047.400 7  90479623.640 7      1813.870          47.988    22096047.282 7  90479625.650 7      1813.871          47.008  
G18  22897082.603 7 120324954.058 7     -3108.365          45.386    22897081.712 6  93759717.854 6     -2422.104          39.405    22897082.234 7  93759713.855 7     -2422.104          44.970  
G07  24434487.496 6 128404108.710 6       773.051          40.693    24434488.369 6 100055149.349 6       602.377          40.582    24434488.932 7 100055150.366 7       602.379          43.412  
G11  24663427.666 7 129607203.259 7      3516.249          44.269    24663429.527 5 100992614.517 5      2739.938          33.007                                                                  
G26  22479183.376 7 118128888.425 7     -3271.552          42.557    22479184.899 7  92048496.211 7     -2549.263          42.631    22479184.983 7  92048474.209 7     -2549.265          44.971  
G15  24866887.717 7 130676363.704 7       682.595          44.068    24866887.488 7 101825746.798 7       531.891          43.285    24866887.851 6 101825759.817 6       531.892          37.540  
G08  22290120.526 6 117135380.665 6      2630.522          41.354    22290123.350 6  91274323.413 6      2049.759          41.522    22290124.365 7  91274333.415 7      2049.758          46.901  
G16  20715379.326 7 108860047.801 7     -1515.296          44.924    20715377.833 7  84826007.920 7     -1180.750          44.599                                                                  
G21  21696083.743 7 114013685.215 7     -1927.743          45.562    21696082.607 7  88841831.017 7     -1502.139          44.243                                                                  
> 2020 06 11 13 26 43.0000000  0 11      -0.000000000000
G20  21282828.971 7 111842018.601 7        19.299          45.981    21282827.742 7  87149625.491 7        15.040          44.412                                                                  
G27  20470354.041 8 107572437.725 8      1008.407          48.901    20470355.092 8  83822678.017 8       785.772          48.969    20470355.657 8  83822680.021 8       785.773          50.254  
G10  22095603.381 7 116113182.859 7      2327.129          47.834    22095604.514 7  90477810.113 7      1813.347          47.626    22095604.397 7  90477812.122 7      1813.348          47.817  
